[
  {
    "state_name": "Maryland",
    "total_number_of_facilities": 53,
    "jobs_directly_supported": 49945,
    "annual_average_wage": 140498,
    "total_clinical_trials": 872,
    "dollar_amount_invested_in_clinical_trials": 323400000,
    "clinical_trial_participants": 19317,
    "total_clinical_trial_economic_impact": 845700000,
    "main_city": "Baltimore",
    "main_city_lat": 39.2908816,
    "main_city_long": -76.610759
  },
  {
    "state_name": "Vermont",
    "total_number_of_facilities": 2,
    "jobs_directly_supported": 2747,
    "annual_average_wage": 91235,
    "total_clinical_trials": 2,
    "dollar_amount_invested_in_clinical_trials": 12200000,
    "clinical_trial_participants": 1106,
    "total_clinical_trial_economic_impact": 30000000,
    "main_city": "Burlington",
    "main_city_lat": 44.4761601,
    "main_city_long": -73.212906
  },
  {
    "state_name": "West Virginia",
    "total_number_of_facilities": 1,
    "jobs_directly_supported": 6581,
    "annual_average_wage": 94391,
    "total_clinical_trials": 118,
    "dollar_amount_invested_in_clinical_trials": 20900000,
    "clinical_trial_participants": 1276,
    "total_clinical_trial_economic_impact": 46500000,
    "main_city": "Charleston",
    "main_city_lat": 38.3505995,
    "main_city_long": -81.6332812
  },
  {
    "state_name": "Rhode Island",
    "total_number_of_facilities": 4,
    "jobs_directly_supported": 5773,
    "annual_average_wage": 95450,
    "total_clinical_trials": 200,
    "dollar_amount_invested_in_clinical_trials": 53100000,
    "clinical_trial_participants": 3538,
    "total_clinical_trial_economic_impact": 141800000,
    "main_city": "Providence",
    "main_city_lat": 41.8239891,
    "main_city_long": -71.4128343
  },
  {
    "state_name": "Colorado",
    "total_number_of_facilities": 16,
    "jobs_directly_supported": 38102,
    "annual_average_wage": 117225,
    "total_clinical_trials": 847,
    "dollar_amount_invested_in_clinical_trials": 237500000,
    "clinical_trial_participants": 14947,
    "total_clinical_trial_economic_impact": 706900000,
    "main_city": "Denver",
    "main_city_lat": 39.7392364,
    "main_city_long": -104.984862
  },
  {
    "state_name": "Nevada",
    "total_number_of_facilities": 5,
    "jobs_directly_supported": 9413,
    "annual_average_wage": 97766,
    "total_clinical_trials": 418,
    "dollar_amount_invested_in_clinical_trials": 138900000,
    "clinical_trial_participants": 8189,
    "total_clinical_trial_economic_impact": 357100000,
    "main_city": "Las Vegas",
    "main_city_lat": 36.1716997,
    "main_city_long": -115.146357
  },
  {
    "state_name": "New Hampshire",
    "total_number_of_facilities": 6,
    "jobs_directly_supported": 8293,
    "annual_average_wage": 119883,
    "total_clinical_trials": 151,
    "dollar_amount_invested_in_clinical_trials": 30000000,
    "clinical_trial_participants": 2144,
    "total_clinical_trial_economic_impact": 79400000,
    "main_city": "Manchester",
    "main_city_lat": 42.9956397,
    "main_city_long": -71.4547891
  },
  {
    "state_name": "New Mexico",
    "total_number_of_facilities": 2,
    "jobs_directly_supported": 6821,
    "annual_average_wage": 72248,
    "total_clinical_trials": 232,
    "dollar_amount_invested_in_clinical_trials": 53400000,
    "clinical_trial_participants": 3536,
    "total_clinical_trial_economic_impact": 126000000,
    "main_city": "Albuquerque",
    "main_city_lat": 35.0841034,
    "main_city_long": -106.650985
  },
  {
    "state_name": "Utah",
    "total_number_of_facilities": 8,
    "jobs_directly_supported": 40419,
    "annual_average_wage": 80984,
    "total_clinical_trials": 572,
    "dollar_amount_invested_in_clinical_trials": 347600000,
    "clinical_trial_participants": 15666,
    "total_clinical_trial_economic_impact": 1000000000,
    "main_city": "Salt Lake City",
    "main_city_lat": 40.7596198,
    "main_city_long": -111.886797
  },
  {
    "state_name": "Maine",
    "total_number_of_facilities": 2,
    "jobs_directly_supported": 10374,
    "annual_average_wage": 89095,
    "total_clinical_trials": 114,
    "dollar_amount_invested_in_clinical_trials": 24500000,
    "clinical_trial_participants": 1988,
    "total_clinical_trial_economic_impact": 65400000,
    "main_city": "Portland",
    "main_city_lat": 43.6573605,
    "main_city_long": -70.2586618
  },
  {
    "state_name": "Montana",
    "total_number_of_facilities": 8,
    "jobs_directly_supported": 3745,
    "annual_average_wage": 84944,
    "total_clinical_trials": 133,
    "dollar_amount_invested_in_clinical_trials": 61600000,
    "clinical_trial_participants": 3242,
    "total_clinical_trial_economic_impact": 147500000,
    "main_city": "Billings",
    "main_city_lat": 45.7874957,
    "main_city_long": -108.49607
  },

  {
    "state_name": "Connecticut",
    "total_number_of_facilities": 24,
    "jobs_directly_supported": 24251,
    "annual_average_wage": 136103,
    "total_clinical_trials": 581,
    "dollar_amount_invested_in_clinical_trials": 145200000,
    "clinical_trial_participants": 9582,
    "total_clinical_trial_economic_impact": 374000000,
    "main_city": "Bridgeport",
    "main_city_lat": null,
    "main_city_long": null
  },
  {
    "state_name": "Delaware",
    "total_number_of_facilities": 9,
    "jobs_directly_supported": 7190,
    "annual_average_wage": 131612,
    "total_clinical_trials": 9,
    "dollar_amount_invested_in_clinical_trials": 7300000,
    "clinical_trial_participants": 770,
    "total_clinical_trial_economic_impact": 18100000,
    "main_city": "Wilmington",
    "main_city_lat": 39.7459468,
    "main_city_long": -75.546589
  },
  {
    "state_name": "District of Columbia",
    "total_number_of_facilities": 2,
    "jobs_directly_supported": 3387,
    "annual_average_wage": 161710,
    "total_clinical_trials": 294,
    "dollar_amount_invested_in_clinical_trials": 63300000,
    "clinical_trial_participants": 4433,
    "total_clinical_trial_economic_impact": 106900000,
    "main_city": "Washington",
    "main_city_lat": 38.8950368,
    "main_city_long": -77.0365427
  },
  {
    "state_name": "Florida",
    "total_number_of_facilities": 22,
    "jobs_directly_supported": 106688,
    "annual_average_wage": 106360,
    "total_clinical_trials": 1735,
    "dollar_amount_invested_in_clinical_trials": 1490000000,
    "clinical_trial_participants": 93375,
    "total_clinical_trial_economic_impact": 4650000000,
    "main_city": "Jacksonville",
    "main_city_lat": 30.3321838,
    "main_city_long": -81.655651
  },
  {
    "state_name": "Kentucky",
    "total_number_of_facilities": 10,
    "jobs_directly_supported": 16354,
    "annual_average_wage": 92798,
    "total_clinical_trials": 501,
    "dollar_amount_invested_in_clinical_trials": 165300000,
    "clinical_trial_participants": 9866,
    "total_clinical_trial_economic_impact": 406500000,
    "main_city": "Louisville",
    "main_city_lat": 38.2542376,
    "main_city_long": -85.759407
  },
  {
    "state_name": "Louisiana",
    "total_number_of_facilities": 10,
    "jobs_directly_supported": 12353,
    "annual_average_wage": 99681,
    "total_clinical_trials": 516,
    "dollar_amount_invested_in_clinical_trials": 199900000,
    "clinical_trial_participants": 12591,
    "total_clinical_trial_economic_impact": 502600000,
    "main_city": "New Orleans",
    "main_city_lat": 29.9759983,
    "main_city_long": -90.0782127
  },
  {
    "state_name": "Indiana",
    "total_number_of_facilities": 29,
    "jobs_directly_supported": 65290,
    "annual_average_wage": 109138,
    "total_clinical_trials": 637,
    "dollar_amount_invested_in_clinical_trials": 183500000,
    "clinical_trial_participants": 12152,
    "total_clinical_trial_economic_impact": 477600000,
    "main_city": "Indianapolis",
    "main_city_lat": 39.7683331,
    "main_city_long": -86.1583502
  },
  {
    "state_name": "Iowa",
    "total_number_of_facilities": 37,
    "jobs_directly_supported": 26469,
    "annual_average_wage": 87885,
    "total_clinical_trials": 293,
    "dollar_amount_invested_in_clinical_trials": 77700000,
    "clinical_trial_participants": 5650,
    "total_clinical_trial_economic_impact": 187100000,
    "main_city": "Des Moines",
    "main_city_lat": 41.5868654,
    "main_city_long": -93.6249494
  },
  {
    "state_name": "Kansas",
    "total_number_of_facilities": 9,
    "jobs_directly_supported": 19405,
    "annual_average_wage": 90745,
    "total_clinical_trials": 535,
    "dollar_amount_invested_in_clinical_trials": 245400000,
    "clinical_trial_participants": 13255,
    "total_clinical_trial_economic_impact": 628400000,
    "main_city": "Wichita",
    "main_city_lat": 37.6922361,
    "main_city_long": -97.3375448
  },
  {
    "state_name": "Arizona",
    "total_number_of_facilities": 17,
    "jobs_directly_supported": 36410,
    "annual_average_wage": 99585,
    "total_clinical_trials": 900,
    "dollar_amount_invested_in_clinical_trials": 384500000,
    "clinical_trial_participants": 24984,
    "total_clinical_trial_economic_impact": 1160000000,
    "main_city": "Phoenix",
    "main_city_lat": 33.4484367,
    "main_city_long": -112.074141
  },
  {
    "state_name": "California",
    "total_number_of_facilities": 375,
    "jobs_directly_supported": 334690,
    "annual_average_wage": 163181,
    "total_clinical_trials": 2152,
    "dollar_amount_invested_in_clinical_trials": 1840000000,
    "clinical_trial_participants": 102669,
    "total_clinical_trial_economic_impact": 538000000,
    "main_city": "Los Angeles",
    "main_city_lat": 34.0536909,
    "main_city_long": -118.242766
  },
  {
    "state_name": "Georgia",
    "total_number_of_facilities": 32,
    "jobs_directly_supported": 38449,
    "annual_average_wage": 97413,
    "total_clinical_trials": 1024,
    "dollar_amount_invested_in_clinical_trials": 385200000,
    "clinical_trial_participants": 23479,
    "total_clinical_trial_economic_impact": 1110000000,
    "main_city": "Atlanta",
    "main_city_lat": 33.7544657,
    "main_city_long": -84.3898151
  },
  {
    "state_name": "Idaho",
    "total_number_of_facilities": 6,
    "jobs_directly_supported": 8031,
    "annual_average_wage": 89521,
    "total_clinical_trials": 217,
    "dollar_amount_invested_in_clinical_trials": 58700000,
    "clinical_trial_participants": 4139,
    "total_clinical_trial_economic_impact": 144100000,
    "main_city": "Boise",
    "main_city_lat": 43.6166163,
    "main_city_long": -116.200886
  },
  {
    "state_name": "Illinois",
    "total_number_of_facilities": 60,
    "jobs_directly_supported": 90941,
    "annual_average_wage": 141681,
    "total_clinical_trials": 1092,
    "dollar_amount_invested_in_clinical_trials": 387100000,
    "clinical_trial_participants": 26741,
    "total_clinical_trial_economic_impact": 1150000000,
    "main_city": "Chicago",
    "main_city_lat": 41.8755616,
    "main_city_long": -87.6244212
  },
  {
    "state_name": "Wyoming",
    "total_number_of_facilities": 0,
    "jobs_directly_supported": 1073,
    "annual_average_wage": 81889,
    "total_clinical_trials": null,
    "dollar_amount_invested_in_clinical_trials": 34000,
    "clinical_trial_participants": 8,
    "total_clinical_trial_economic_impact": 100000,
    "main_city": "Cheyenne",
    "main_city_lat": 41.139981,
    "main_city_long": -104.820246
  },
  {
    "state_name": "Alabama",
    "total_number_of_facilities": 9,
    "jobs_directly_supported": 14372,
    "annual_average_wage": 77658,
    "total_clinical_trials": 664,
    "dollar_amount_invested_in_clinical_trials": 273000000,
    "clinical_trial_participants": 14062,
    "total_clinical_trial_economic_impact": 672800000,
    "main_city": "Birmingham",
    "main_city_lat": 33.5206824,
    "main_city_long": -86.8024326
  },
  {
    "state_name": "Arkansas",
    "total_number_of_facilities": 11,
    "jobs_directly_supported": 19405,
    "annual_average_wage": 90745,
    "total_clinical_trials": 382,
    "dollar_amount_invested_in_clinical_trials": 109000000,
    "clinical_trial_participants": 6386,
    "total_clinical_trial_economic_impact": 265000000,
    "main_city": "Little Rock",
    "main_city_lat": 34.7465071,
    "main_city_long": -92.2896267
  },
  {
    "state_name": "Minnesota",
    "total_number_of_facilities": 35,
    "jobs_directly_supported": 63338,
    "annual_average_wage": 116110,
    "total_clinical_trials": 653,
    "dollar_amount_invested_in_clinical_trials": 218000000,
    "clinical_trial_participants": 13942,
    "total_clinical_trial_economic_impact": 629800000,
    "main_city": "Minneapolis",
    "main_city_lat": 44.9772995,
    "main_city_long": -93.2654692
  },
  {
    "state_name": "Mississippi",
    "total_number_of_facilities": 10,
    "jobs_directly_supported": 7720,
    "annual_average_wage": 80053,
    "total_clinical_trials": 190,
    "dollar_amount_invested_in_clinical_trials": 51900000,
    "clinical_trial_participants": 2798,
    "total_clinical_trial_economic_impact": 118800000,
    "main_city": "Jackson",
    "main_city_lat": 32.2998686,
    "main_city_long": -90.1830408
  },
  {
    "state_name": "Missouri",
    "total_number_of_facilities": 34,
    "jobs_directly_supported": 35739,
    "annual_average_wage": 97496,
    "total_clinical_trials": 970,
    "dollar_amount_invested_in_clinical_trials": 354000000,
    "clinical_trial_participants": 18953,
    "total_clinical_trial_economic_impact": 981100000,
    "main_city": "Kansas City",
    "main_city_lat": 39.100105,
    "main_city_long": -94.5781416
  },
  {
    "state_name": "Nebraska",
    "total_number_of_facilities": 12,
    "jobs_directly_supported": 18147,
    "annual_average_wage": 82718,
    "total_clinical_trials": 403,
    "dollar_amount_invested_in_clinical_trials": 153200000,
    "clinical_trial_participants": 8403,
    "total_clinical_trial_economic_impact": 394700000,
    "main_city": "Omaha",
    "main_city_lat": 41.2587459,
    "main_city_long": -95.9383758
  },
  {
    "state_name": "North Carolina",
    "total_number_of_facilities": 64,
    "jobs_directly_supported": 92223,
    "annual_average_wage": 111993,
    "total_clinical_trials": 1196,
    "dollar_amount_invested_in_clinical_trials": 648600000,
    "clinical_trial_participants": 42279,
    "total_clinical_trial_economic_impact": 1800000000,
    "main_city": "Charlotte",
    "main_city_lat": 35.2272086,
    "main_city_long": -80.8430827
  },
  {
    "state_name": "North Dakota",
    "total_number_of_facilities": 5,
    "jobs_directly_supported": 4299,
    "annual_average_wage": 84600,
    "total_clinical_trials": null,
    "dollar_amount_invested_in_clinical_trials": 16400000,
    "clinical_trial_participants": 1324,
    "total_clinical_trial_economic_impact": 37800000,
    "main_city": "Fargo",
    "main_city_lat": 46.877229,
    "main_city_long": -96.789821
  },
  {
    "state_name": "Ohio",
    "total_number_of_facilities": 24,
    "jobs_directly_supported": 59052,
    "annual_average_wage": 98478,
    "total_clinical_trials": 1297,
    "dollar_amount_invested_in_clinical_trials": 566100000,
    "clinical_trial_participants": 35343,
    "total_clinical_trial_economic_impact": 1610000000,
    "main_city": "Columbus",
    "main_city_lat": 39.9622601,
    "main_city_long": -83.0007065
  },
  {
    "state_name": "Pennsylvania",
    "total_number_of_facilities": 100,
    "jobs_directly_supported": 5000,
    "annual_average_wage": 85000,
    "total_clinical_trials": 250,
    "dollar_amount_invested_in_clinical_trials": 150000000,
    "clinical_trial_participants": 12000,
    "total_clinical_trial_economic_impact": 300000000,
    "main_city": "Philadelphia",
    "main_city_lat": 39.9527237,
    "main_city_long": -75.1635262
  },
  {
    "state_name": "South Carolina",
    "total_number_of_facilities": 11,
    "jobs_directly_supported": 19418,
    "annual_average_wage": 83546,
    "total_clinical_trials": 708,
    "dollar_amount_invested_in_clinical_trials": 331700000,
    "clinical_trial_participants": 18475,
    "total_clinical_trial_economic_impact": 829400000,
    "main_city": "Charleston",
    "main_city_lat": 32.7884363,
    "main_city_long": -79.9399309
  },
  {
    "state_name": "South Dakota",
    "total_number_of_facilities": 12,
    "jobs_directly_supported": 7427,
    "annual_average_wage": 79945,
    "total_clinical_trials": 144,
    "dollar_amount_invested_in_clinical_trials": 42100000,
    "clinical_trial_participants": 2338,
    "total_clinical_trial_economic_impact": 101800000,
    "main_city": "Sioux Falls",
    "main_city_lat": 43.5476008,
    "main_city_long": -96.7293629
  },
  {
    "state_name": "Tennessee",
    "total_number_of_facilities": 16,
    "jobs_directly_supported": 44375,
    "annual_average_wage": 104420,
    "total_clinical_trials": 1016,
    "dollar_amount_invested_in_clinical_trials": 380500000,
    "clinical_trial_participants": 24089,
    "total_clinical_trial_economic_impact": 1040000000,
    "main_city": "Nashville",
    "main_city_lat": 36.1622767,
    "main_city_long": -86.7742984
  },
  {
    "state_name": "Texas",
    "total_number_of_facilities": 91,
    "jobs_directly_supported": 116473,
    "annual_average_wage": 111025,
    "total_clinical_trials": 1989,
    "dollar_amount_invested_in_clinical_trials": 1500000000,
    "clinical_trial_participants": 91696,
    "total_clinical_trial_economic_impact": 4610000000,
    "main_city": "Houston",
    "main_city_lat": 29.7589382,
    "main_city_long": -95.3676974
  },
  {
    "state_name": "Virginia",
    "total_number_of_facilities": 15,
    "jobs_directly_supported": 28135,
    "annual_average_wage": 99016,
    "total_clinical_trials": 759,
    "dollar_amount_invested_in_clinical_trials": 267200000,
    "clinical_trial_participants": 17685,
    "total_clinical_trial_economic_impact": 695700000,
    "main_city": "Virginia Beach",
    "main_city_lat": 36.8496579,
    "main_city_long": -75.9760751
  },
  {
    "state_name": "Washington",
    "total_number_of_facilities": 34,
    "jobs_directly_supported": 43546,
    "annual_average_wage": 123108,
    "total_clinical_trials": 847,
    "dollar_amount_invested_in_clinical_trials": 295700000,
    "clinical_trial_participants": 25267,
    "total_clinical_trial_economic_impact": 783500000,
    "main_city": "Seattle",
    "main_city_lat": 47.6038321,
    "main_city_long": -122.330062
  },
  {
    "state_name": "Wisconsin",
    "total_number_of_facilities": 24,
    "jobs_directly_supported": 42483,
    "annual_average_wage": 95151,
    "total_clinical_trials": 409,
    "dollar_amount_invested_in_clinical_trials": 90200000,
    "clinical_trial_participants": 6811,
    "total_clinical_trial_economic_impact": 237400000,
    "main_city": "Milwaukee",
    "main_city_lat": 43.0386475,
    "main_city_long": -87.9090751
  },
  {
    "state_name": "Massachusetts",
    "total_number_of_facilities": 85,
    "jobs_directly_supported": 32000,
    "annual_average_wage": 125000,
    "total_clinical_trials": 4500,
    "dollar_amount_invested_in_clinical_trials": 2100000000,
    "clinical_trial_participants": 58000,
    "total_clinical_trial_economic_impact": 3500000000,
    "main_city": "Boston",
    "main_city_lat": 42.3554334,
    "main_city_long": -71.060511
  },
  {
    "state_name": "Michigan",
    "total_number_of_facilities": 24,
    "jobs_directly_supported": 44340,
    "annual_average_wage": 101374,
    "total_clinical_trials": 941,
    "dollar_amount_invested_in_clinical_trials": 288000000,
    "clinical_trial_participants": 19877,
    "total_clinical_trial_economic_impact": 800300000,
    "main_city": "Detroit",
    "main_city_lat": 42.3315509,
    "main_city_long": -83.0466403
  },
  {
    "state_name": "Oregon",
    "total_number_of_facilities": 9,
    "jobs_directly_supported": 17392,
    "annual_average_wage": 89192,
    "total_clinical_trials": 577,
    "dollar_amount_invested_in_clinical_trials": 171700000,
    "clinical_trial_participants": 8675,
    "total_clinical_trial_economic_impact": 450200000,
    "main_city": "Portland",
    "main_city_lat": 45.5202471,
    "main_city_long": -122.674194
  },
  {
    "state_name": "Oklahoma",
    "total_number_of_facilities": 6,
    "jobs_directly_supported": 10490,
    "annual_average_wage": 90236,
    "total_clinical_trials": 417,
    "dollar_amount_invested_in_clinical_trials": 113100000,
    "clinical_trial_participants": 6982,
    "total_clinical_trial_economic_impact": 286400000,
    "main_city": "Oklahoma City",
    "main_city_lat": 35.4729886,
    "main_city_long": -97.5170536
  }
]